location,lon,lat
二级 榆树,116.29980539206649,39.99397328614221
一级 桑树,116.29918977903442,39.99361065595883
二级 桧柏,116.30021361120016,39.99359861262447
二级 桑树,116.29947095786633,39.99246052910966
二级 侧柏,116.29982437780545,39.99219175842317
二级银杏,116.30003195274827,39.99143214993486
智慧之树,116.30051909053755,39.99120321 
二级 油松,116.30220002082228,39.991279370237805
二级 榆树240,116.30212769114249,39.99191341175221
二级 桧柏200,116.30233244361904,39.99208976133204
二级 油松,116.30158012012916,39.99353457102463
二级 侧柏,116.30334817129685,39.99248349483256
二级 银杏,116.30423956172493,39.99192504785326
二级 侧柏,116.3041364699437,39.992004340180905
一级 油松,116.30595646152216,39.99221885277664
二级 侧柏,116.30581194082242,39.99246569584492
二级 国槐,116.30546395777101,39.99269543947694
二级 国槐,116.30545984164134,39.99368687 
二级 国槐 清代,116.30782840623074,39.993825339778944
一级 桑树,116.29918977903442,39.99361065595883
